COUNTRY,MA_ID,NAME,LON,LAT,DESIG,LEGAL,DESIG_TYPE,DOMAIN,STATUS,DATE_ESTAB,AREA_R_HA,MARIE_R_H,MGT_PLAN,IUCN_CAT,INTL_CONV,STATE_PROV,ZONES,NO_TAKE,NO_TK_R_HA,MGT_MODEL,MGT_EFF,SOURCE,NOTES,CONSENT,CTMPAS_CAT,VALIDATED,VALIDATED_BY,VALIDATED_ON,HAS_POLY
"Indonesia","1015947","Kawasan Konservasi Kolepom Di Provinsi Papua Selatan","137.80402760","-7.96639380","Province Marine Protected Area","KEPMENKP NOMOR 5 TAHUN 2023","Local","Marine","Designated","2023-01-05",356337.90,356337.90,"Yes","Unknown","","Papua Selatan","Yes","Part",35458.27,"EVIKA","Strengthened","ATSEA & MMAF","","Yes","Category 2","False","","","True"
"Indonesia","1015946","Bangka Tengah Marine Protected Area","105.81069946","-2.41517801","Province Marine Protected Area","Kep Bupati Bangka Tengah Nomor : 188.45/268/DKP/2007","Provincial","Marine","Designated","2007-01-01",0.00,0.00,"Unknown","","","","","",,"EKKP3K","","","","Yes","Category 1","False","","","False"
"Indonesia","1015945","Teluk Cendrawasih Marine National Park","134.41772461","-1.81463742","National Marine Protected Area","SK. Menhut Nomor 8009/Kpts-II/2002","National","Marine","Designated","2002-01-01",1453500.00,1453500.00,"Yes","","","","Yes","",,"","","","","Yes","Category 1","False","","","False"
"Indonesia","1015944","Kepulauan Fam Raja Ampat Marine Protected Area","130.24703979","-0.61961676","Province Marine Protected Area","KEPGUB PABAR 523/195/10/2017 tanggal 25 Oktober 2017","Provincial","Marine","Designated","2017-10-25",360000.00,360000.00,"Drafted","","","Papua Barat","","",,"EKKP3K","","MMAF","","Yes","Category 1","False","","","False"
"Indonesia","1015943","Teluk Berau dan Teluk Nusalasi Marine Protected Area ","132.17102051","-2.54359741","Province Marine Protected Area","KEPGUB PABAR 523/136/7/2017 Tanggal 25 Juli 2017","Provincial","Marine","Designated","2017-06-25",350000.00,350000.00,"Yes","","","Papua Barat","","",,"EKKP3K","Established","","","Yes","Category 1","False","","","False"
"Indonesia","1015942","Kepulauan Sula Marine Protected Area","126.06811523","-1.99032171","Province Marine Protected Area","KEPGUB MALUT 360/KPTS/MU/2018","Provincial","Marine","Designated","2018-12-27",117959.88,117959.88,"Drafted","","","Maluku Utara","","",,"EKKP3K","","MMAF","","Yes","Category 1","False","","","False"
"Indonesia","1015941","Pulau Makian Marine Protected Area","127.47711182","0.32079924","Province Marine Protected Area","KEPGUB MALUT 359/KPTS/MU/2018","Provincial","Marine","Unknown","2018-12-27",42799.00,42799.00,"No","","","North Maluku","","",,"EKKP3K","","MMAF","","Yes","Category 1","False","","","False"
"Indonesia","1015940","Pulau Ay-Pulau Rhun Banda Marine Protected Area","129.71076965","-4.56903278","Marine Protected Area","KEPGUB MALUKU Nomor 388 Tahun 2016","Provincial","Marine","Designated","2016-11-23",47968.74,47968.74,"Drafted","","","Maluku","","",,"EKKP3K","Unknown","","","Yes","Category 1","False","","","False"
"Indonesia","1015939","Kepulauan Lease Marine Protected Area","128.47686768","-3.67021675","Province Marine Protected Area","KEPGUB MALUKU Nomor 387 Tahun 2016 tanggal 23 November 2016","Provincial","Marine","Designated","2016-11-23",81573.48,81573.48,"Drafted","","","Maluku","","",,"EKKP3K","","MMAF","","Yes","Category 1","False","","","False"
"Indonesia","1015938","Pulau Baeer Marine Protected Area","132.69561768","-5.34586429","Province Marine Protected Area","KEPGUB Maluku Nomor 386 Tahun 2016 tanggal 23 November 2016","Provincial","Marine","Designated","2016-11-23",82.00,82.00,"Unknown","","","Maluku","","",,"EKKP3K","","MMAF","","Yes","Category 1","False","","","False"
"Indonesia","1015937","Mamuju Marine Protected Area","118.83087158","-2.52932948","Province Marine Protected Area","KEPGUB SULBAR 188.4/526/Sulbar/IX/2016 6 September 2016","Provincial","Marine","Designated","2016-09-06",67000.00,67000.00,"Unknown","","","West Sulawesi","","",,"EKKP3K","","MMAF","","Yes","Category 1","False","","","False"
"Indonesia","1015936","Teluk Bone Bagian Selatan Marine Protected Area","120.79467773","-4.14043408","Province Marine Protected Area","KEPGUB SULSEL Nomor 2943/XI/2018 tanggal 8 November 2018","Provincial","Marine","Designated","2018-11-08",423924.00,423924.00,"Unknown","","","","","",,"EKKP3K","","MMAF","","Yes","Category 1","False","","","False"
"Indonesia","1015935","Pulo Kauna Kayuadi Marine Protected Area","120.44860840","-6.70388924","Province Marine Protected Area","KEPGUB SULSEL 3173/XII/2018 ","Provincial","Marine","Designated","2018-12-12",3983.00,3983.00,"Unknown","","","South Sulawesi","","",,"EKKP3K","","","","Yes","Category 1","False","","","False"
"Indonesia","1015934","Liukang Tangaya Marine Protected Area","118.83499146","-6.98259009","Province Marine Protected Area","KEPGUB SULSEL 3172/XII/2018 ","Provincial","Marine","Designated","2018-12-12",500797.77,500797.77,"Unknown","Unknown","","South Sulawesi","","",,"EKKP3K","","","","Yes","Category 1","False","","","False"
"Indonesia","1015933","Buton Selatan Marine Protected Area","122.32040405","-5.42625734","Province Marine Protected Area","KEPBUP Buton Selatan No. 143.A tanggal 29 Maret 2016","Provincial","Marine","Designated","2016-03-29",35698.73,35698.73,"Unknown","","","South East Sulwesi","","",,"EKKP3K","Unrated","MMAF","","Yes","Category 1","False","","","False"
"Indonesia","1015932","Muna Marine Protected Area","122.76535034","-4.73638712","Province Marine Protected Area","KEPBUP Muna No. 508 Tahun 2014","Provincial","Marine","Designated","2014-09-01",76417.16,76417.16,"No","","","South East Sulwesi ","Unknown","",,"EKKP3K","Unrated","MMAF","","Yes","Category 1","False","","","False"
"Indonesia","1015931","Botuberani Marine Protected Area","123.09854507","0.46636449","Province Marine Protected Area","KEPGUB GORONTALO Nomor 141/24/IV/2019","Provincial","Marine","Designated","2019-01-01",35.00,35.00,"Unknown","","","Gorontalo","","",,"EKKP3K","Unrated","MMAF","","Yes","Category 1","False","","","False"
"Indonesia","1015930","Sumalata Marine Protected Area","122.42340088","1.08977817","Province Marine Protected Area","KEPGUB GORONTALO Nomor 141/24/IV/2019","Provincial","Marine","Unknown","2019-01-01",14307.93,14307.93,"No","","","Gorontalo","Unknown","",,"EKKP3K","Unrated","MMAF","","Yes","Category 1","False","","","False"
"Indonesia","1015929","Mabasar maruangi Marine Protected Area","123.10249329","0.45235739","Province Marine Protected Area","KEPGUB GORONTALO Nomor 141/24/IV/2019","Provincial","Marine","Designated","2019-01-01",1164.01,1164.01,"Unknown","Unknown","","Gorontalo","Unknown","",,"EKKP3K","Unrated","","","Yes","Category 1","False","","","False"
"Indonesia","1015928","Bilihu Timur Marine Protected Area","122.94662476","0.46801244","Province Marine Protected Area","KEPGUB GORONTALO Nomor 141/24/IV/2019","Provincial","Marine","Designated","2019-01-01",107.75,107.75,"Unknown","Unknown","","Gorontalo","Unknown","Part",,"EKKP3K","Unrated","MMAF","","Yes","Category 1","False","","","False"
"Indonesia","1015927","Dulangka Marine Conservation","121.43909454","0.40676540","Province Marine Protected Area","KEPGUB GORONTALO Nomor 141/24/IV/2019","Provincial","Marine","Designated","2019-01-01",3418.52,0.00,"No","","","Gorontalo","Yes","",,"EKKP3K","Strengthened","","","Yes","Category 1","False","","","False"
"Indonesia","1015926","Tanjung Panjang Marine Conservation Area","121.73675537","0.45263214","Province Marine Protected Area","KEPGUB GORONTALO Nomor 141/24/IV/2019","Provincial","Marine","Designated","2019-01-01",2952.47,0.00,"Unknown","","","Gorontalo","Yes","",,"EKKP3K","Strengthened","","","Yes","Category 1","False","","","False"
"Indonesia","1015925","Maruagi Mabasar Marine Protected Area","121.62277222","0.50097025","Province Marine Protected Area","KEPGUB GORONTALO Nomor 141/24/IV/2019","Provincial","Marine","Designated","2019-01-01",6866.17,0.00,"No","","","Gorontalo","Yes","",,"EKKP3K","Established","","","Yes","Category 1","False","","","False"
"Indonesia","1015924","Tolinggula","122.70835876","0.92473405","Province Marine Protected Area","KEPGUB GORONTALO Nomor 141/24/IV/2019","Provincial","Marine","Designated","2019-11-11",2097.00,0.00,"No","","","Gorontalo","No","",,"EKKP3K","Unknown","","","Yes","Category 1","False","","","False"
"Indonesia","1015923","Pulau Mohinggito Marine Protected Area","122.82440186","0.92500878","Province Marine Protected Area","KEPGUB GORONTALO Nomor 141/24/IV/2019","Provincial","Marine","Designated","2019-11-12",469.11,0.00,"No","","","Gorontalo","No","",,"EKKP3K","Unknown","","","Yes","Category 1","False","","","False"
"Indonesia","1015922","Tatoareng Marine Protected Area","125.41442871","3.76998207","Province Marine Protected Area","KEPGUB SULUT Nomor 170 tanggal 12 April 2017  ","Provincial","Marine","Designated","2017-04-12",167398.00,0.00,"Yes","","","Sulawesi Utara","Yes","",,"EKKP3K","Strengthened","","","Yes","Category 2","False","","","False"
"Indonesia","1015920","Minahasa Marine Conservation","124.30480957","1.20181643","Province Marine Protected Area","KEPBUP Minahasa Nomor 762 Tahun 2013 tanggal 5 Desember 2013","Provincial","Marine","Designated","2013-12-05",0.00,0.00,"No","","","","","",,"","","","","Yes","Category 1","False","","","False"
"Indonesia","1015919","Kepulauan Sitaro Marine Conservation Area","125.32379150","2.12207340","Province Marine Protected Area","KEPGUB SULUT Nomor 407 Tahun 2018 tanggal 15 Oktober 2018","Provincial","Marine","Designated","2018-10-15",44110.11,0.00,"No","","","Sulawesi Utara","No","",,"EKKP3K","Unknown","","","Yes","Category 1","False","","","False"
"Indonesia","1015918","Senggora Marine Conservation Area","115.86456299","-3.97166886","Province Marine Protected Area","KEPMENKP No.24/KEPMEN-KP/2019","Provincial","Marine","Designated","2019-01-01",61362.24,0.00,"Yes","","","Kalimantan Tengah","Yes","",,"EKKP3K","Strengthened","","","Yes","Category 2","False","","","False"
"Indonesia","1015917","Kendawangan Ketapang Marine Protected Area","110.06652832","-2.91670792","Province Marine Protected Area","KEPGUB KALBAR Nomor 193/DKP/2017 tanggal 21 Februari 2017 ","Provincial","Marine","Designated","2017-02-21",188458.29,0.00,"No","","","Kalimantan Barat","No","",,"EKKP3K","Unknown","","","Yes","Category 1","False","","","False"
"Indonesia","1015916","Kubu Raya Marine Protected Area","108.97338867","-0.29882623","Province Marine Protected Area","KEPGUB KALBAR Nomor 193/DKP/2017 tanggal 21 Februari 2017 ","Provincial","Marine","Designated","2017-02-21",301845.94,0.00,"No","","","Kalimantan Barat","","",,"EKKP3K","Unknown","","","Yes","Category 1","False","","","False"
"Indonesia","1015915","Sambas Marine Protected Area","109.37438965","2.02545718","Province Marine Protected Area","KEPGUB KALBAR Nomor 193/DKP/2017 tanggal 21 Februari 2017 ","Provincial","Marine","Designated","2017-02-21",105252.79,0.00,"No","","","Kalimantan Barat","No","",,"EKKP3K","Institutionalized","","","Yes","Category 1","False","","","False"
"Indonesia","1015914","Pulau Lipan and Pulau Rakit Marine Reserve","117.78442383","-8.55060210","Province Marine Protected Area","SK NTB Nomor 523 - 640 Tahun 2018","Provincial","Marine","Designated","2018-08-03",26640.76,0.00,"Yes","","","Nusa Tenggara Barat","Yes","",,"EKKP3K","Strengthened","","","Yes","Category 2","False","","","True"
"Indonesia","1015912","Teluk Bumbang Marine Conservation","116.40495300","-8.93879747","Province Marine Protected Area","KEPGUB NTB Nomor 523 - 640 Tahun 2018 tanggal 3 Agustus 2018","Provincial","Marine","Designated","2018-08-03",6310.00,6310.00,"Yes","","","Nusa Tenggara Barat","Yes","",,"EKKP3K","","","","Yes","Category 2","False","","","False"
"Indonesia","1015911","Kawasan Konservasi Karangasem","115.63696090","-8.39983992","Province Marine Protected Area","KEPMEN KP NOMOR 123 TAHUN 2023","Provincial","Marine","Designated","2023-01-12",5478.41,5478.41,"Yes","Unknown","","Bali","Yes","Part",,"EVIKA","Strengthened","","","Yes","Category 2","False","IDNMPA","","True"
"Indonesia","1015910","Banyuwangi Marine Conservation Park","114.39926147","-8.14515521","Province Marine Protected Area","KEPGUB JATIM Nomor 188/569/KPTS/013/2018 tanggal 10 Oktober 2018","Provincial","Marine","Designated","2018-10-10",111.10,111.10,"Yes","","","Jawa Timur","Yes","",,"EKKP3K","Strengthened","","","Yes","Category 2","False","","","False"
"Indonesia","1015909","Tulungagung Marine Conservation","112.99163818","-8.42129652","Province Marine Protected Area","KEPGUB JATIM Nomor 188/569/KPTS/013/2018 tanggal 10 Oktober 2018","Provincial","Marine","Designated","2018-10-10",217.00,217.00,"Yes","","","Jawa Timur","","",,"EKKP3K","Strengthened","","","Yes","Category 1","False","","","False"
"Indonesia","1015908","Gili Ketapang Marine Small Island Conservation ","113.25187683","-7.67778502","Province Marine Protected Area","KEPGUB JATIM Nomor 188/569/KPTS/013/2018 tanggal 10 Oktober 2018","Provincial","Marine","Designated","2018-10-10",347.07,347.07,"Yes","","","","Yes","",,"EKKP3K","Strengthened","","","Yes","Category 2","False","","","False"
"Indonesia","1015907","Kawasan Konservasi Maritim Hmas Perth Di Perairan Provinsi Banten","106.12547420","-5.85940583","Province Marine Protected Area","KEPMEN KP NOMOR 21/KEPMEN-KP/2018","Provincial","Marine","Designated","2023-01-12",99.94,99.94,"Yes","Unknown","No","Banten","Yes","Part",,"EVIKA","Strengthened","MMAF","","Yes","Category 2","False","IDNMPA","","True"
"Indonesia","1015906","Pulau Batang Segama Marine Conservation","106.29574500","-5.07979700","Provinve Marine Protected Area","KEPGUB LAMPUNG G/585/III.17.HK/2015","Provincial","Marine","Designated","2015-01-01",14569.30,0.00,"No","","","Lampung","","",,"EKKP3K","Unrated","","","Yes","Category 1","False","","","False"
"Indonesia","1015903","Tuing Marine Conservation Area","105.92468262","-1.47859535","Province Marine Conservation Area","KEPGUB Kep. Bangka Belitung Nomor 188.44/739/DKP/2018 tanggal 27 September 2018","Provincial","Marine","Designated","2018-09-27",9809.56,0.00,"Drafted","","","Kepulauan Bangka Belitung","","",,"EKKP3K","","","","Yes","Category 1","False","","","False"
"Indonesia","1015902","Kepulauan Aruah Marine Conservation","100.60359800","2.84888500","Province Marine Conservation Area","KEPGUB RIAU Kpts.863/XI/2017 tanggal 6 November 2017 ","Provincial","Marine","Designated","2017-11-06",23481.32,0.00,"Unknown","","","Riau","","",,"EKKP3K","","","","Yes","Category 1","False","","","False"
"Indonesia","1015901","Indragiri Hilir Marine Conservation ","103.87573242","0.16259797","Province Marine Conservation Area","KEPGUB RIAU Kpts.863/XI/2017 tanggal 6 November 2017 ","Provincial","Marine","Designated","2017-11-06",205595.64,0.00,"Unknown","","","Riau","","",,"EKKP3K","Established","","","Yes","Category 1","False","","","False"
"Indonesia","1000195","KKP-23 Aceh Tamiang","98.17999221","4.50215064","Province Marine Protected Area","PERDA PROVINSI ACEH NOMOR 1 TAHUN 2020","Provincial","Marine","Proposed","2020-12-12",119.25,119.25,"No","Unknown","No","Aceh","No","",,"EVIKA","Unrated","MMAF","","Yes","Category 1","True","idnmpa","","True"
"Indonesia","1000194","Aceh Selatan","96.98480000","2.21010000","Local","Governor Decree of Aceh Number 523/1297/2018 tanggal 26 November 2018","Provincial","Marine","Designated","2018-11-26",3590.34,3590.34,"Drafted","","CBD, Aichi Target, SDG 14","DIY Aceh","","",,"EKKP3K","Established","Ministry Marine affairs and Fisheries","","Yes","Category 1","False","idnmpa","","False"
"Indonesia","1000193","Aceh Barat Daya","96.72520000","3.67710000","Local","Governor Decree of Aceh Number 523/1297/2018 dates 26 November 2018","Provincial","Marine","Designated","2018-11-26",16017.34,16017.34,"Drafted","","CBD, Aichi Target, SDG 14","DIY Aceh","No","Unknown",,"EKKP3K","Established","Ministry Marine affairs and Fisheries","","Yes","Category 1","False","","","False"
"Indonesia","1000192","Rupat Utara","101.50440000","2.08450000","Local ","Governor decree Kpts.565/II/2019 tanggal 15 Februari 2019","Provincial","Marine","Designated","2019-02-15",15547.00,15547.00,"No","","CBD, Aichi Target, SDG 14","Riau","No","",,"EKKP3K","Established","Ministry Marine affairs and Fisheries","","Yes","Category 1","False","idnmpa","","False"
"Indonesia","1015900","Maluku Tenggara Barat Marine Conservation Area","131.40000000","-7.22100000","Province Marine Conservation Area","Keputusan Bupati Maluku Tenggara Barat nomor: 523-246 Tahun 2016","Local","Marine","Designated","2016-03-31",783806.00,0.00,"Drafted","","","Maluku","","",,"EKKP3K","","","","Point only","Category 1","False","","","False"
"Indonesia","1015700","Halmahera Selatan Conservation Area (Widi Island)","128.51000000","-0.60000000","Province Marine Conservation Area","Keputusan Gubernur Maluku Utara Nomor 251/KPTS/MU/2015","Provincial","Marine","Designated","2015-12-16",7690.00,0.00,"Unknown","","Unknown","","","",,"EKKP3K","Unknown","","","Point only","Category 1","False","","","False"
"Indonesia","1015600","Liang and Ngali Island Marine Conservation Area","117.68000000","-8.52000000","Province Marine Conservation Area","KEPGUB NTB Nomor 523 - 640 Tahun 2018 tanggal 3 Agustus 2018","Local","Marine","Designated","2018-08-03",33461.00,0.00,"Yes","","Unknown","Nusa Tenggara Barat","Yes","",,"EKKP3K","Unknown","","","Yes","Category 1","False","","","False"
"Indonesia","1015500","Taman Pesisir Penyu Lunyuk","117.10000000","-9.09500000","District Marine Conservation Area","Keputusan Bupati Sumbawa Nomor 1212 Tahun 2014","Local","Marine","Designated","2014-12-13",72415.29,0.00,"Unknown","Unknown","Unknown","Nusa Tenggara Barat","","",0.00,"","Unknown","","","Point only","Category 1","False","","","False"
"Indonesia","1015300","Jeen Womon","132.86000000","-0.40900000","Province Marine Conservation Area","MMAF Decree No. 53/KEPMEN-KP/2017","Provincial","Marine","Designated","2017-01-01",32250.86,32250.86,"Yes","Unknown","Unknown","West papua","Yes","Unknown",,"EKKP3K","Strengthened","MMAF and MoF","","Yes","Category 1","False","idnmpa","","False"
"Indonesia","1015200","Nunukan Marine Conservation Area","117.38000000","3.91300000","Province Marine Conservation Area","SK Bupati No No.44 tahun 2007","Provincial","Marine-Terrestrial","Designated","2007-02-02",200.00,0.00,"Unknown","Unknown","","East Kalimantan","Unknown","Unknown",,"EKKP3K","Unknown","MMAF","","Yes","Category 1","False","","","False"
"Indonesia","1015100","Sidoarjo Small Island District Marine Conservation Area","112.88349152","-7.57313558","District Marine Conservation Area","KEPGUB JATIM Nomor 188/569/KPTS/013/2018 tanggal 10 Oktober 2018","Local","Marine","Designated","2018-10-10",72.32,0.00,"Yes","Unknown","Unknown","East Java","Yes","Unknown",,"EKKP3K","Unknown","MMAF","","Yes","Category 1","False","","","False"
"Indonesia","1015000","Teluk Kiluan Marine Recreation Park ","105.13000000","-5.79100000","Province Marine Conservation Area","KEPBUP Tanggamus No: B.399/32/11/2014","Provincial","Marine","Designated","2014-11-11",76214.33,0.00,"Yes","Unknown","Unknown","Lampung","Unknown","Unknown",,"EKKP3K","Unknown","MMAF","","Yes","Category 1","False","","","False"
"Indonesia","1014900","Kawasan Konservasi Karang Sugali","109.43287230","-6.76459054","Province Marine Protected Area","PERDA PROVINSI JAWA TENGAH NOMOR 13 TAHUN 2018","Provincial","Marine","Proposed","2018-01-12",1083.89,1083.89,"No","Unknown","No","Jawa Tengah","No","",,"EVIKA","Unrated","MMAF","","Yes","Category 1","True","IDNMPA","","False"
"Indonesia","1014800","Minahasa Utara Marine Conservation Area","124.97000000","1.46500000","District Marine Conservation Area","KEPGUB SULUT Nomor 407 Tahun 2018 tanggal 15 Oktober 2018","Local","Marine","Unknown","2018-10-15",26524.87,0.00,"Unknown","","Unknown","North Sulawesi","Unknown","Unknown",,"EKKP3K","Unknown","MMAF","","Yes","Category 1","False","","","False"
"Indonesia","1014700","Barru (Pulau Pannitiang Coastal and Small Island)  Marine Conservasion Area","119.76000000","-4.56200000","Province Marine Conservation Area","KEPGUB SULSEL 2944/XI/2018 tanggal 8 November 2018","Provincial","Marine","Designated","2018-11-08",605.94,0.00,"Unknown","Unknown","Unknown","South Sulawesi","Unknown","Unknown",,"EKKP3K","Unknown","MMAF","","Yes","Category 1","False","","","False"
"Indonesia","1014600","South East Sulawesi (Kota Kendari, Kabupaten Konawe, dan Kab. Konawe Selatan) District marine COnservation Area","122.55000000","-4.01100000","Province Marine Conservation Area","KEPGUB SULTRA 98 Tahun 2016","Provincial","Marine","Designated","2014-06-18",21786.14,0.00,"Drafted","Unknown","Unknown","Southeast Sulawesi","Unknown","Unknown",,"EKKP3K","Unknown","MMAF","","Yes","Category 1","False","","","False"
"Indonesia","1014500","Kawasan Konservasi Pesisir Dan Pulau-Pulau Kecil Donggala, Buol, Tolitoli, Dan Perairan Sekitarnya Di Provinsi Sulawesi Tengah","120.60741000","1.07172876","Province Marine Conservation Area","KEPMEN KP NOMOR 50/KEPMEN-KP/2019","Provincial","Marine","Designated","2019-01-12",60042.72,60042.72,"Yes","Unknown","No","Sulawesi Tengah","Yes","Part",,"EVIKA","Strengthened","MMAF","","Yes","Category 2","True","IDNMPA","","True"
"Indonesia","1014400","Kawasan Konservasi Bangka Selatan","106.92243820","-2.87532361","Province Marine Conservation Area","PERDA PROVINSI KEPULAUAN BANGKA BELITUNG NOMOR 3 TAHUN 2020","Provincial","Marine","Proposed","2020-01-12",92511.90,92511.90,"No","Unknown","No","Kepulauan Bangka Belitung","No","",,"","Unrated","EVIKA","","Yes","Category 1","False","","","True"
"Indonesia","1014300","Kawasan Konservasi Perairan Belitung Di Provinsi Kepulauan Bangka Belitung","107.44050950","-2.98059076","Province Marine Protected Area","KEPMEN KP NOMOR 94/KEPMEN-KP/2020","Provincial","Marine","Designated","2020-01-12",391820.23,391820.23,"Yes","Unknown","No","Kepulauan Bangka Belitung","Yes","Part",,"EVIKA","Strengthened","MMAF","","Yes","Category 2","False","IDNMPA","","True"
"Indonesia","1014200","Bantul Coastal and Marine Conservation Area","110.25867800","-8.00235000","Province Marine Conservation Area","Nomor 284 Tahun 2014","Provincial","Marine","Designated","2014-04-28",182.00,0.00,"Unknown","Unknown","","DI Yogyakarta","Unknown","Unknown",,"","Unknown","MMAF","","Yes","Category 1","False","","","False"
"Indonesia","1014100","Kota Bitung Coast and Small Island Marine Conservation Area","125.24300000","1.45100000","Province Marine Conservation Area","SK WALIKOTA Bitung Nomor 188.45/HKM/SK/121/2014","Provincial","Marine","Unknown","2014-01-01",9647.00,0.00,"Unknown","Unknown","Unknown","North Sulawesi","Unknown","Unknown",,"","Unknown","MMAF","","Yes","Category 1","False","","","False"
"Indonesia","1013900","KKP-01 Melaya Jembrana","114.47749940","-8.27755142","Province Marine Protected Area","PERDA PROVINSI BALI NOMOR 2 TAHUN 2023","Local","Marine","Proposed","2023-01-12",1168.12,1168.12,"Unknown","Unknown","Unknown","Bali","No","",,"EVIKA","Unrated","MMAF","","Yes","Category 1","False","","","False"
"Indonesia","1013800","Kawasan Konservasi Di Perairan Di Wilayah Pulau Panjang Provinsi Jawa Tengah","110.63323560","-6.57998246","Province Marine Conservation Area","KEPMEN KP NOMOR 77 TAHUN 2022","Provincial","Marine","Designated","2022-01-12",494.25,494.25,"Yes","Unknown","No","Jawa Tengah","Yes","Part",,"EVIKA","Strengthened","MMAF","","Yes","Category 1","False","IDNMPA","","True"
"Indonesia","1013700","Pasuruan District Marine Conservation Area","112.93000000","-7.64000000","District Marine Conservation Area","SK Bupati Nomor 523/513/HK/424.013/2012","Local","Marine","Designated","2012-01-01",4073.74,0.00,"Yes","Unknown","Unknown","East Java","Yes","Unknown",,"EKKP3K","Unknown","MMAF","","Yes","Category 1","False","","","False"
"Indonesia","1013600","Boalemo Marine Conservation Area","122.26010800","0.43391000","Province Marine Conservation Area","KEPGUB GORONTALO Nomor 141/24/IV/2019","Provincial","Marine","Designated","2013-01-01",0.00,0.00,"Unknown","Unknown","Unknown","Gorontalo","Unknown","Unknown",,"","Unknown","MMAF","","Yes","Category 1","False","","","False"
"Indonesia","1013500","Kawasan Konservasi Pesisir Dan Pulau-Pulau Kecil Morowali, Morowali Utara, Dan Perairan Sekitarnya Di Provinsi Sulawesi Tengah","122.71485080","-3.15698487","Province Marine Conservation Area","KEPMEN KP NOMOR 52/KEPMEN-KP/2019","Provincial","Marine","Designated","2019-01-12",292910.12,292910.12,"Yes","Unknown","No","Sulawesi Tengah","Yes","Part",,"EVIKA","Strengthened","MMAF","","Yes","Category 2","True","IDNMPA","","True"
"Indonesia","1013300","Kota Tidore Kepulauan Marine Conservation Area","127.62200000","0.41900000","Province Marine Conservation Area","SK WAL Tidore Kepulauan Nomor 72.2 Tahun 2012","Provincial","Marine","Designated","2012-01-01",2810.00,0.00,"Unknown","Unknown","Unknown","North Maluku","Unknown","Unknown",,"","Unknown","MMAF","","Yes","Category 1","False","","","False"
"Indonesia","1013200","Kawasan Konservasi Pesisir Dan Pulau-Pulau Kecil Parigi Moutong, Poso, Tojo Una-Una, Dan Perairan Sekitarnya Di Provinsi Sulawesi Tengah","120.84029160","0.22330746","Province Marine Conservation Area","KEPMEN KP NOMOR 51/KEPMEN-KP/2019","Provincial","Marine","Designated","2019-01-12",137766.95,128689.86,"Yes","Unknown","No","Sulawesi Tengah","Yes","Part",,"EVIKA","Strengthened","MMAF","","Yes","Category 2","True","IDNMPA","","True"
"Indonesia","1013100","Kawasan Konservasi Ketugar Perlang","106.47202370","-2.42745475","Province Marine Protected Area","KEPMENKP NOMOR 108 TAHUN 2023","Provincial","Marine","Designated","2023-01-12",11358.29,11358.29,"Yes","Unknown","No","Kepulauan Bangka Belitung","Yes","Part",,"EVIKA","Strengthened","MMAF","","Yes","Category 2","False","IDNMPA","","True"
"Indonesia","1013000","Lombok Barat (Gili Tangkong, Gili Nanggu dan Gili Sudak) District Marine Conservation Areas","116.08000000","-8.68800000","Province Marine Conservation Area","KEPMENKP No. 93/KEPMEN-KP/2018","Provincial","Marine","Designated","2018-01-01",21132.82,0.00,"Yes","Unknown","Unknown","Nusa Tenggara Barat","Unknown","Unknown",,"EKKP3K","Unknown","MMAF","","Yes","Category 1","False","","","False"
"Indonesia","1012900","Konawe Marine Tourism Park","122.57720947","-3.86114898","Province Marine Conservation Area","KEPGUB SULTRA 725 Tahun 2016 tanggal 30 Desember 2016","Provincial","Marine","Designated","2013-01-25",28340.00,0.00,"Drafted","Unknown","Unknown","Southeast Sulawesi","Unknown","Unknown",,"EKKP3K","Established","MMAF","","Yes","Category 1","False","","","False"
"Indonesia","1012800","East Florest Marine Conservation Area","122.95000000","-8.50700000","Province  Marine Conservation Area","KEPGUB NTT No. 116/KEP/HK/2018","Provincial","Marine","Designated","2013-06-03",150000.00,0.00,"Unknown","Unknown","Unknown","Nusa Tenggara Timur","Unknown","Unknown",,"","Unknown","MMAF","","Yes","Category 1","False","","","False"
"Indonesia","1012700","Lembata Marine Conservation Area","123.64000000","-8.32100000","Province Marine Conservation Area","SK Bupati Nomor 420 Tahun 2012","Provincial","Marine","Designated","2012-10-26",225624.00,0.00,"Drafted","Unknown","Unknown","Nusa Tenggara Timur","Unknown","Unknown",,"EKKP3K","Unknown","MMAF","","Yes","Category 1","False","","","False"
"Indonesia","1012600","Situbondo Marine Conservation Area","113.82247925","-7.68495286","Province Marine Conservation Area","KEPGUB JATIM Nomor 188/569/KPTS/013/2018 tanggal 10 Oktober 2018","Local","Marine","Designated","2018-10-10",123.18,0.00,"Yes","Unknown","Unknown","East Java","Yes","Unknown",,"EKKP3K","Unknown","MMAF","","Yes","Category 1","False","","","False"
"Indonesia","1012500","Bungo  Marine Conservation Areas","101.00000000","-1.67000000","Province Marine Conservation Area","Nomor 53 Tahun 2013 Nomor 54 Tahun 2013 Nomor 55 Tahun 2013 Nomor 56 Tahun 2013","Local","Terrestrial","Designated","2013-02-11",2.27,0.00,"Unknown","Unknown","Unknown","Jambi","Unknown","Unknown",,"EKKP3K","Unknown","MMAF","","Yes","Category 1","False","","","False"
"Indonesia","1012400","Kolaka Marine Conservation Area","121.43919400","-4.26850000","Province Marine Conservation Area","SK Bupati No 200 Tahun 2013","Provincial","Marine","Designated","2013-01-01",60400.00,0.00,"Unknown","Unknown","Unknown","Southeast Sulawesi","Unknown","Unknown",,"EKKP3K","Unknown","MMAF","","Yes","Category 1","False","","","False"
"Indonesia","1012300","Halmahera Tengah Canctuary small island ","127.94000000","0.57800000","Province Marine Conservation Area","SK Bupati Nomor  523/KEP/288/2013","Provincial","Marine","Designated","2013-07-24",192.00,0.00,"Yes","Unknown","","North Maluku","Yes","Unknown",,"EKKP3K","Unknown","MMAF","","Yes","Category 2","False","","","False"
"Indonesia","1012100","Polewali Mandar Marine Conservation Area","119.38000000","-3.42100000","Province Marine Conservation Area","KEPGUB SULBAR 188.4/557/Sulbar/X/2016 Tanggal 4 Oktober 2016","Provincial","Marine","Designated","2016-10-04",33880.00,0.00,"Unknown","Unknown","Unknown","West Sulawesi","Unknown","Unknown",,"EKKP3K","Unknown","MMAF","","Yes","Category 1","False","","","False"
"Indonesia","1012000","Gunung Kidul Marine Conservation Area","110.80000000","-8.18400000","Province Marine Conservation Area","SK BUP Gunungkidul Nomor 271 Tahun 2013","Provincial","Marine","Designated","2013-09-02",3388.46,0.00,"Drafted","","Unknown","DI Yogyakarta","Unknown","Unknown",,"","Unknown","MMAF","","Yes","Category 1","False","","","False"
"Indonesia","1011900","Agam Marine Conservation Area","99.88976000","-0.44666900","Province Marine Conservation Area","KEPGUB SUMBAR 523-6-150-2017 tanggal 7 Februari 2017","Provincial","Marine","Designated","2017-02-07",12000.00,0.00,"Unknown","","","West Sumatra","Unknown","",,"EKKP3K","","MMAF","","Yes","Category 1","False","","","False"
"Indonesia","1011700","Sungai Batang Pelangai Marine Conservation Area","100.50000000","-1.20500000","District Marine Conservation Area","SK Bupati No Nomor 523/465/Kpts/BPT-PS/2011","Local","Marine","Designated","2011-01-01",0.00,0.00,"Unknown","Unknown","Unknown","West Sumatera","Unknown","Unknown",,"","Unknown","MMAF","","Yes","Category 1","False","","","False"
"Indonesia","1011600","Maluku Tenggara Marine Conservation Area","131.48000000","-7.58900000","Province Marine Conservation Area","KEPMENKP No. 6/KEPMEN-KP/2016","Provincial","Marine","Designated","2016-01-01",150000.00,0.00,"Yes","Unknown","Unknown","Maluku","Yes","Unknown",,"EKKP3K","Unknown","MMAF","","Yes","Category 1","False","","","False"
"Indonesia","1011400","Morotai Marine Conservationa Area","128.19000000","2.07600000","Province Marine Conservation Area","KEPGUB MALUT 361/KPTS/MU/2018 tanggal 27 Desember 2018","Provincial","Marine","Designated","2012-01-01",65520.75,0.00,"Unknown","Unknown","Unknown","North Maluku","Unknown","Unknown",,"EKKP3K","Unknown","","","Yes","Category 1","False","","","False"
"Indonesia","1011300","Majene Marine Conservationa Area","118.99000000","-3.55000000","Province Marine Conservation Area","KEPGUB SULBAR 188.4/559/sulbar/X/2016 Tanggal 4 Oktober 2016","Provincial","Marine","Unknown","2016-10-04",49000.00,0.00,"Unknown","Unknown","","West Sulawesi","","Unknown",,"EKKP3K","Unknown","MMAF","","Yes","Category 1","False","","","False"
"Indonesia","1011200","Kepulauan Guraici Marine Conservation Area ","127.53000000","1.50800000","Province Marine Conservation Area","SK BUP Halmahera Selatan Nomor 99 Tahun 2012","Local","Marine","Designated","2012-01-01",6386.46,0.00,"Yes","","Unknown","North Maluku","Yes","Unknown",,"EKKP3K","Unknown","MMAF","","Yes","Category 2","False","","","False"
"Indonesia","1011000","Kawasan Konservasi Perairan Gugusan Pulau-Pulau Momparang Dan Perairan Sekitarnya Kabupaten Belitung Timur Di Provinsi Kepulauan Bangka Belitung","108.57783870","-2.61743185","Province Marine Protected Area","KEPMEN KP NOMOR 52/KEPMEN-KP/2017","Provincial","Marine","Designated","2017-01-12",0.00,124320.70,"Yes","Unknown","No","Kepulauan Bangka Belitung","Yes","Part",,"EVIKA","Strengthened","MMAF","","Yes","Category 2","False","IDNMPA","","True"
"Indonesia","1010900","West Sebatik Marine Conservation Area","117.26000000","3.78000000","Province Marine Conservation Area","Nomor 188.45/40/II/2012","Provincial","Marine","Unknown","2012-01-01",74.00,0.00,"Unknown","","Unknown","East Kalimatan","Unknown","Unknown",,"EKKP3K","Unknown","MPA","","Yes","Category 1","False","","","False"
"Indonesia","1010800","Bombana Marine Conservation Area","121.87133789","-4.92531922","District Marine Conservation Area","Keputusan Bupati Bombana No. 384 Tahun 2011","Local","Marine","Designated","2011-03-01",19176.98,0.00,"Unknown","Unknown","Unknown","Southeast Sulawesi","Unknown","Unknown",,"EKKP3K","Established","MMAF","","Yes","Category 1","False","","","False"
"Indonesia","1010600","Kota Padang Marince Conservation Area  ","100.34225464","-1.08602505","Province Marine Conservation Area","KEPGUB SUMBAR 523-6-150-2017 tanggal 7 Februari 2017","Provincial","Marine","Unknown","2017-02-07",2274.96,0.00,"Drafted","Unknown","Unknown","West Sumatra","Unknown","Unknown",,"EKKP3K","Unknown","MMAF","","Yes","Category 1","False","","","False"
"Indonesia","1010500","Kawasan Konservasi Buleleng","115.15973620","-8.12566670","Province Marine Conservation Area","KEPMENKP NOMOR 122 TAHUN 2023","Provincial","Marine","Designated","2023-01-12",18060.18,18060.18,"Yes","Unknown","Unknown","Bali","Unknown","",,"EVIKA","Strengthened","MMAF","","Yes","Category 2","False","","","False"
"Indonesia","1010400","Tanah Bumbu Marine Conservation Area ","115.61189400","-3.78701600","Province Marine Conservation Area","KEPGUB KALSEL 188.44/0713/KUM/2018 tanggal 27 Desember 2018","Provincial","Marine","Designated","2018-12-27",18751.68,0.00,"Drafted","","Unknown","South Kalimantan","Unknown","Unknown",,"EKKP3K","Unknown","MMAF","","Yes","Category 1","False","","","False"
"Indonesia","1010300","Kota Bontang Marine Conservation Area","117.55353400","0.09245700","Province Marine Conservation Area","Keputusan Walikota Bontang No 112 Tahun 2011","Provincial","Marine","Designated","2011-03-25",5121.38,0.00,"Yes","Unknown","Unknown","East Kalimantan","Yes","Unknown",,"EKKP3K","Strengthened","MMAF","","Yes","Category 2","False","","","False"
"Indonesia","1010100","Kawasan Konservasi Mukomuko","101.36977780","-2.92965746","Province Marine Protected Area","PERDA PROVINSI BENGKULU NOMOR 5 TAHUN 2019","Provincial","Marine","Proposed","2019-01-12",10497.54,10497.54,"No","Unknown","No","Bengkulu","No","",,"EVIKA","Unrated","MMAF","","Yes","Category 1","False","IDNMPA","","True"
"Indonesia","1010000","North Luwu Marine Conservation Area ","120.31000000","-2.80000000","Province Marine Conservation Area","Keputusan Luwu Utara No. 287 Tahun 2010","Local","Marine","Designated","2010-11-23",0.00,0.00,"Unknown","","Unknown","South Sulawesi","Unknown","Unknown",,"","Unknown","MMAF","","Point only","Category 1","False","","","False"
"Indonesia","1009900","Sikka Marine Conservation Area","122.11710200","-8.51655100","Province Marine Conservation Area","Keputusan Bupati Sikka No. 260 /HK/ 2010","Provincial","Marine","Designated","2010-11-18",42250.00,0.00,"Yes","Unknown","Unknown","East Nusa Tenggara","Yes","Unknown",,"EKKP3K","Unknown","MMAF","","Yes","Category 2","False","","","False"
"Indonesia","1009800","Minahasa Selatan Marine Conservation","124.40000000","1.26000000","Province Marine Conservation Area","Keputusan Bupati Minahasa Selatan Nomor : 130 Tahun 2007","Local","Marine","Designated","2007-05-25",26000.00,0.00,"Unknown","Unknown","Unknown","North Sulawesi","Unknown","Unknown",,"EKKP3K","Unknown","MMAF","","Point only","Category 1","False","","","False"
"Indonesia","1009700","Kawasan Konservasi Di Perairan Di Wilayah Karang Jeruk Provinsi Jawa Tengah","109.20115290","-6.81163182","Province Marine Conservation Area","KEPMEN KP NOMOR 75 TAHUN 2022","Provincial","Marine","Designated","2022-01-12",238.16,238.16,"Yes","Unknown","No","Jawa Tengah","Yes","Part",,"EVIKA","Strengthened","MMAF","","Yes","Category 2","True","IDNMPA","","False"
"Indonesia","1009600","Bengkalis Terubuk Fish sanctuary ","102.90000000","1.40200000","District Marine Conservation Area","Kepmen KP. 59 Tahun 2011","Provincial","Marine","Designated","2011-10-12",40741.80,0.00,"Unknown","Unknown","No","Riau","No","Unknown",,"","Unknown","MMAF","","Yes","Category 1","False","","","False"
"Indonesia","1009400","Kawasan Konservasi Panimbang","105.60071050","-6.54958646","Province Marine Conservation Area","PERDA PROV. BANTEN NOMOR 1 TAHUN 2023","Local","Marine","Proposed","2023-01-12",6530.94,6530.94,"Unknown","Unknown","No","Banten","No","",,"EVIKA","Unrated","MMAF","","Yes","Category 1","False","IDNMPA","","False"
"Indonesia","1009300","Kawasan Konservasi Perairan Aceh Besar Di Provinsi Aceh","95.18507649","5.62481075","Province Marine Conservation Area","KEPMEN KP NOMOR 78/KEPMEN-KP/2020","Provincial","Marine","Designated","2018-11-26",29615.63,29615.63,"Yes","Unknown","Unknown","Aceh","No","Unknown",,"EVIKA","Strengthened","MMAF","","Point only","Category 1","False","","","True"
"Indonesia","1009200","Aceh Jaya Marine Conservastion Area","95.57000000","4.64000000","Province Marine Conservation Area","KEPGUB ACEH Nomor 523/1297/2018 tanggal 26 November 2018","Provincial","Marine","Designated","2018-11-26",50041.43,0.00,"Drafted","Unknown","Unknown","Aceh","Unknown","Unknown",,"EKKP3K","Established","MMAF","","Point only","Category 1","False","","","False"
"Indonesia","1009100","Seram Bagian Timur Marine Conservation Area","131.13333300","-3.91944400","Province Marine Conservation Area","KEPGUB MALUKU 75.a Tahun 2018 tanggal 19 Maret 2018","Provincial","Marine","Designated","2018-03-19",9901.00,0.00,"No","Unknown","No","Maluku","No","All",,"Unknown","Unknown","MMAF","","Yes","Category 1","False","","","True"
"Indonesia","1009000","Maluku Tenggara","132.53861100","-5.88446800","Province Marine Conservation Area","KEPMENKP No. 6/KEPMEN-KP/2016","Provincial","Marine","Designated","2016-01-01",150000.00,0.00,"Yes","Unknown","No","Maluku","Yes","Unknown",0.00,"EKKP3K","Established","MMAF","","Yes","Category 1","False","","","True"
"Indonesia","1008500","Popaya Marine Protected Area","122.40417480","0.39074386","Province Marine Conservation Area","KEPGUB GORONTALO Nomor 141/24/IV/2019","Local","Marine","Designated","2019-01-01",1266.67,0.00,"No","Ia","No","Gorontalo","No","Unknown",0.00,"Unknown","Unknown","WDPA","","Yes","Category 1","False","","","True"
"Indonesia","1008300"," Lingga District Marine Conservation Area","104.66553800","-0.10845200","Province Marine Conservation Area","280/KPTS/X/2014 tanggal 3 Oktober 2014","Provincial","Marine","Designated","2014-10-03",385467.50,0.00,"Yes","VI","No","Riau","Yes","Unknown",0.00,"EKKP3K","Established","MMAF","","Yes","Category 1","False","","","True"
"Indonesia","1008200","Kawasan Konservasi Perairan Pesisir Timur Pulau Weh Kota Sabang Di Provinsi Aceh","95.36594130","5.86099979","Province Marine Protected Area","KEPMEN KP NOMOR 57/KEPMEN-KP/2013","Local","Marine","Designated","2020-12-12",3207.98,3207.98,"Yes","Unknown","No","Aceh","Yes","Part",0.00,"EVIKA","Strengthened","MMAF","","Yes","Category 1","True","IDNMPA","","True"
"Indonesia","1008100","Kawasan Konservasi Pulau Enggano","102.22700610","-5.40644804","Province Marine Protected Area","PERDA PROVINSI BENGKULU NOMOR 5 TAHUN 2019","Provincial","Marine","Proposed","2019-01-12",43087.93,43087.93,"No","Unknown","No","Bengkulu","No","",,"EVIKA","Unrated","MMAF","","Yes","Category 1","False","","","True"
"Indonesia","1008000","Lombok Tengah","116.27352300","-8.92062100","Province Marine Conservation Area","KEPGUB NTB Nomor 523 - 640 Tahun 2018 ","Local","Marine","Designated","2018-10-03",6310.00,0.00,"Yes","VI","No","East Nusa Tenggara","Yes","Unknown",0.00,"EKKP3K","Strengthened","MMAF","","Yes","Category 2","False","","","True"
"Indonesia","1007900","Kab Sumbawa (P. Keramat, P. Bedil, P. Temudong) Marine Conservation Area","117.06925800","-8.38219900","Province Marine Conservation Area","KEPGUB NTB Nomor 523 - 640 Tahun 2018 tanggal 3 Agustus 2018","Provincial","Marine","Designated","2018-08-03",2000.00,0.00,"Yes","VI","No","West Nusa Tenggara","Yes","Unknown",0.00,"EKKP3K","Strengthened","MMAF","","Yes","Category 2","False","","","True"
"Indonesia","1007800","Sumenep Marine Conservation Area","115.89036100","-7.07678300","Province Marine Conservation Area","KEPGUB JATIM Nomor 188/569/KPTS/013/2018 ","Local","Marine","Designated","2018-10-10",72026.14,0.00,"Yes","VI","No","East Java","Yes","Unknown",0.00,"EKKP3K","Established","MMAF","","Yes","Category 1","False","","","True"
"Indonesia","1007700","Taman Laut Banda Marine Nature Recreational Park","129.90320600","-4.53926200","Marine Nature Recreational Park","KEPMENKP No. KEP.69/MEN/2009","National","Marine","Designated","2009-09-03",2500.00,0.00,"Yes","V","No","Maluku","Yes","Unknown",0.00,"EKKP3K","Strengthened","MMAF & MoF","","Yes","Category 2","False","","","True"
"Indonesia","1007600","Gili Sulat, Gili Lawang  Marine Conservation Area","116.72652100","-8.32849600","Province Marine Conservation Area","KEPMENKP No. 92/KEPMEN-KP/2018","Provincial","Marine","Designated","2018-01-01",10000.00,0.00,"Yes","V","No","West Nusa Tenggara","Yes","Unknown",0.00,"EKKP3K","Strengthened","MMAF & MoF","","Yes","Category 1","False","","","True"
"Indonesia","1007500","Pulau Tujuh Belas Marine Nature Recreational Park","121.03652100","-8.38302200","Marine Nature Recreational Park","Menteri Kehutanan No. 589/Kpts-II/1996; Tgl. 16-09-1996","National","Marine","Designated","1996-09-16",9900.00,0.00,"Unknown","V","No","East Nusa Tenggara","Unknown","Unknown",0.00,"Unknown","Unknown","MMAF","","Yes","Category 1","False","","","True"
"Indonesia","1007400","Teluk Lasolo-Teluk Dalam Marine Nature Recreational Park","122.37389400","-3.61027800","Marine Nature Recreational Park","Menteri Hutbun No. 451/Kpts-II/1999; Tgl. 17-6-1999","National","Marine","Designated","1999-06-17",81800.00,0.00,"Unknown","V","No","Southeast Sulawesi","Unknown","Unknown",0.00,"Unknown","Unknown","MMAF","","Yes","Category 1","False","","","True"
"Indonesia","1007300","Pulau Weh Sabang Marine Nature Recreational Park","95.23970800","5.85812700","Marine Nature Recreational Park","Menteri Pertanian No. 928/Kpts/Um/82 Tgl. 27/12/1982","National","Marine","Designated","1982-12-27",3900.00,0.00,"Unknown","V","No","Nanggroe Aceh Darussalam","Unknown","Unknown",0.00,"Unknown","Unknown","MMAF","","Yes","Category 1","False","","","True"
"Indonesia","1007200","Pananjung Pangandaran Marine Nature Reserve","108.67005800","-7.73341100","Marine Nature Reserve","Menteri Kehutanan No. 225/Kpts-II/1990; Tgl. 8-5-1990","National","Marine","Designated","1990-05-08",470.00,0.00,"Unknown","Unknown","No","West Java","Unknown","Unknown",0.00,"Unknown","Unknown","MMAF","","Yes","Category 1","False","","","True"
"Indonesia","1007100","Leuweng Sancang Marine Nature Reserve","107.85655200","-7.74173400","Marine Nature Reserve","Menteri Kehutanan No. 682/Kpts-II/1990; Tgl. 17-11-1990","National","Marine","Designated","1990-11-17",1150.00,0.00,"Unknown","Unknown","No","West Java","Unknown","Unknown",0.00,"Unknown","Unknown","MMAF","","Yes","Category 1","False","","","True"
"Indonesia","1007000","Kepulauan Padamarang Marine Nature Recreational Park","121.42184400","-4.11889500","Marine Nature Recreational Park","Menteri Kehutanan No. 94/Kpts-II/2003; Tgl 19-03-2003","National","Marine","Designated","2003-03-19",36000.00,0.00,"Unknown","V","No","Southeast Sulawesi","Unknown","Unknown",0.00,"Unknown","Unknown","MMAF","","Yes","Category 1","False","","","True"
"Indonesia","1006900","Kepulauan Aru Tenggara Marine Wildlife Reserve","134.63394900","-7.03183600","Marine Wildlife Reserve","Kep MenKP Nomor 63/Men/2009 Tgl. 3 September 2009","National","Marine","Designated","1991-02-04",114000.00,0.00,"Yes","IV","No","Maluku","Yes","Unknown",0.00,"EKKP3K","Strengthened","MMAF","","Yes","Category 2","False","","","True"
"Indonesia","1006800","Teluk Maumere Marine Nature Recreational Park","122.38987700","-8.55388400","Marine Nature Recreational Park","Menteri Kehutanan No. 126/Kpts-II/1987; Tgl. 21-04-1987","National","Marine","Designated","1987-04-21",59450.00,0.00,"Unknown","V","No","East Nusa Tenggara","Unknown","Unknown",0.00,"Unknown","Unknown","MMAF","","Yes","Category 1","False","","","True"
"Indonesia","1006700","Kawasan Konservasi Pesisir Dan Pulau-Pulau Kecil Ujungnegoro-Roban Kabupaten Batang Di Provinsi Jawa Tengah","109.77481800","-6.86266045","Province Marine Protected Area","KEPMEN KP NOMOR KEP.29/MEN/2012","Provincial","Marine","Designated","2012-01-12",4015.20,0.00,"Yes","Unknown","No","Jawa Tengah","Yes","Part",0.00,"EVIKA","Strengthened","MMAF","","Yes","Category 2","False","IDNMPA","","True"
"Indonesia","1006600","Buton Tengah Marine Protected Area","122.29511500","-5.49133700","Province Marine Conservation Area","KEPBUP No: 233 tanggal 29 Agustus  2016","Provincial","Marine","Designated","2016-08-29",109069.55,0.00,"Unknown","VI","No","Southeast Sulawesi","Unknown","Unknown",0.00,"EKKP3K","Established","MMAF & MoF","","Yes","Category 1","False","","","True"
"Indonesia","1006500"," Pulau Laut, P. Sembilan, P. Samber Gelap (Kotabaru) Marine Conservation Area","116.16090600","-4.04814000","Province Marine Conservation Area","KEPGUB KALSEL 188.44/0713/KUM/2018 tanggal 27 Desember 2018","Local","Marine","Designated","2018-12-27",160908.13,0.00,"Drafted","V","No","South Kalimantan","Yes","Unknown",0.00,"EKKP3K","Strengthened","WDPA","","Yes","Category 1","False","","","True"
"Indonesia","1006400","Raja Ampat Marine Nature Reserve","130.34997600","-0.35944300","Marine Wildlife Reserve","Kep MenKP Nomor 64/Men/2009 Tgl. 3 September 2009","National","Marine","Designated","2009-09-03",60000.00,0.00,"Yes","IV","No","West Papua","Yes","Unknown",0.00,"EKKP3K","Strengthened","MMAF & MoF","","Yes","Category 2","False","","","True"
"Indonesia","1006300","Teluk Kupang Marine Nature Recreational Park","123.51029900","-10.15289900","Marine Nature Recreational Park","Menteri Kehutanan No.18/Kpts-II/1993; Tgl. 28-01-1993","National","Marine","Designated","1993-01-28",50000.00,0.00,"Unknown","V","No","East Nusa Tenggara","Unknown","Unknown",0.00,"Unknown","Unknown","MMAF & MoF","","Yes","Category 2","False","","","True"
"Indonesia","1006200","Selat Pantar (P Batang, Lapang, Rusa) District Marine Conservation Area","124.26110800","-8.47778500","District Marine Conservation Area","Kepmen KP Nomor 35/KEPMEN-KP/2015","Local","Marine","Designated","2015-06-16",276693.45,0.00,"Yes","VI","No","East Nusa Tenggara","Yes","Part",0.00,"E-KKP3K/EMPA","Established","MMAF & MoF","","Yes","Category 1","False","","","True"
"Indonesia","1006100","Savu Sea Marine National Park","122.22909500","-10.66632500","Marine National Park","Men. Kelautan dan Perikanan No: 5/Kepmen-KP/2014 ","National","Marine","Designated","2014-01-28",3355352.82,0.00,"Yes","II","No","East Nusa Tenggara","Yes","Unknown",79668.20,"E-KP3K","Unknown","MMAF & MoF","","Yes","Category 3","True","Yes","","True"
"Indonesia","1006000","Pangkajene Liukang Tupabiring Marine Conservation Area","119.19398700","-4.75666000","Province Marine Conservation Area","KEPGUB SULSEL 3172/XII/2018 tanggal 12 Desember 2018                     ","Local","Marine","Designated","2018-12-12",66870.00,0.00,"Yes","V","No","South Sulawesi","Yes","Unknown",0.00,"EKKP3K","Strengthened","MMAF & MoF","","Yes","Category 1","False","","","True"
"Indonesia","1005900","Kawasan Konservasi Pesisir Dan Pulau-Pulau Kecil Banggai, Banggai Laut, Banggai Kepulauan, Dan Perairan Sekitarnya Di Provinsi Sulawesi Tengah","123.29887090","-1.71802735","Province Marine Conservation Area","KEPMEN KP NOMOR 53/KEPMEN-KP/2019","Provincial","Marine","Designated","2019-01-12",856649.13,856649.13,"Yes","Unknown","No","Sulawesi Tengah","Yes","Part",0.00,"EVIKA","Strengthened","MMAF","","Yes","Category 2","False","idnmpa","","True"
"Indonesia","1005800","Kepulauan Anambas Marine Nature Recreational Park","105.79566000","2.39131800","Marine Nature Recreational Park","KEPMENKP No. 37/KEPMEN-KP/2014","National","Marine","Designated","2014-07-15",1262686.20,0.00,"Yes","VI","No","Kepulauan Riau","Yes","Unknown",30328.58,"EKKP3K","Strengthened","MMAF & MoF","","Yes","Category 3","True","Yes","","True"
"Indonesia","1005700","Kawasan Konservasi Perairan Nusa Penida Di Provinsi Bali","115.53058270","-8.74119153","Province Marine Protected Area","KEPMEN KP NOMOR 90/KEPMEN-KP/2018","Provincial","Marine","Designated","2018-01-01",20057.00,20057.00,"Yes","Unknown","No","Bali","Yes","Part",0.00,"EVIKA","Strengthened","MMAF","","Yes","Category 2","False","idnmpa","","True"
"Indonesia","1005600","Pulau Moyo Marine Nature Recreational Park","117.52424800","-8.39643300","Marine Nature Recreational Park","Menteri Kehutanan No. 98/Kpts-II/2001; Tgl. 15-3-2001","National","Marine","Designated","2001-03-15",6000.00,0.00,"Unknown","V","No","West Nusa Tenggara","Unknown","Unknown",0.00,"Unknown","Unknown","CTI","","Yes","Category 2","False","","","True"
"Indonesia","1005500","Kepulauan Kapoposang Marine Nature Recreational Park","119.03389700","-4.77849500","Marine Nature Recreational Park","KEPMENKP No. KEP.66/MEN/2009","Local","Marine","Designated","1996-09-12",50000.00,0.00,"Yes","V","No","South Sulawesi","Yes","Unknown",0.00,"Unknown","Unknown","CTI","","Yes","Category 2","False","idnmpa","","True"
"Indonesia","1005400","Gili Meno, Gili Ayer, Gili Trawangan Marine Nature Recreational Park","116.05378700","-8.35409400","Marine Nature Recreational Park","Kep MenKP Nomor 37/Men/2009 Tgl. 3 September 2009","National","Marine","Designated","2009-09-03",2954.00,0.00,"Yes","V","No","West Nusa Tenggara","Yes","Unknown",0.00,"EKKP3K","Strengthened","CTI","","Yes","Category 2","False","","","True"
"Indonesia","1005300","Pulau Satonda Marine Nature Recreational Park","117.74870600","-8.10311200","Marine Nature Recreational Park","Menteri Kehutanan No. 22/Kpts-VI/1998; Tgl. 7 Januari 1998","National","Marine","Designated","1998-01-07",2600.00,0.00,"Unknown","V","No","West Nusa Tenggara","Unknown","Unknown",0.00,"Unknown","Unknown","CTI","","Yes","Category 2","False","","","True"
"Indonesia","1005200","Kepulauan Padaido Marine Nature Recreational Park","136.49973300","-1.24937700","Marine Nature Recreational Park","Kep. Menteri Kelautan dan Perikanan Republik Indonesia Nomor Kep 68/Men/2009; Tgl.3 September 2009","National","Marine","Designated","2009-09-03",183000.00,0.00,"Yes","V","No","Papua","Unknown","Unknown",0.00,"Unknown","Unknown","CTI","","Yes","Category 2","False","","","True"
"Indonesia","1005100","Sindangkerta Marine Wildlife Reserve","108.07168600","-7.76883700","Marine Wildlife Reserve","Menteri Kehutanan No. 6964/Kpts-II/2002 Tgl. 17 Februari 2002","National","Marine","Designated","2002-02-17",90.00,0.00,"Unknown","IV","No","West Java","Unknown","Unknown",0.00,"Unknown","Unknown","CTI","","Yes","Category 1","False","","","True"
"Indonesia","1005000","Pulau Anak Krakatau Marine Nature Reserve","105.40515100","-6.11131000","Marine Nature Reserve","Menteri Kehutanan No. 85/Kpts-II/1990; Tgl. 26-2-1990","National","Marine","Designated","1990-02-26",11200.00,0.00,"Unknown","Ia","No","Lampung","Unknown","Unknown",0.00,"Unknown","Unknown","CTI","","Yes","Category 1","False","","","True"
"Indonesia","1004900","Kepulauan Karimata Marine Nature Reserve","108.85292800","-1.62669200","Marine Nature Reserve","Menteri Kehutanan No. 381/Kpts-II/1985; Tgl. 27-12-1985","National","Marine","Designated","1985-12-27",77000.00,0.00,"Unknown","Ia","No","West Kalimantan","Unknown","Unknown",0.00,"Unknown","Unknown","CTI","","Yes","Category 1","False","","","True"
"Indonesia","1004800","Kepulauan Seribu Marine National Park","106.57459000","-5.57285100","Marine National Park","SK. Menhut Nomor 8310/Kpts-II/2002; Tgl 13-6-2002","National","Marine","Designated","2002-06-13",107489.00,0.00,"Unknown","II","No","DKL Jakarta","Unknown","Unknown",0.00,"Unknown","Unknown","CTI","","Yes","Category 1","False","","","True"
"Indonesia","1004700","Taka Bonerate Marine National Park","121.18037300","-6.71874600","Marine National Park","SK. Menhut Nomor 92/Kpts-II/2001; Tgl 26-2-2001","National","Marine","Designated","2001-02-26",530765.00,0.00,"Unknown","II","No","South Sulawesi","Unknown","Unknown",0.00,"Unknown","Unknown","CTI","","Yes","Category 1","False","","","True"
"Indonesia","1004600","Kepulauan Wakatobi Marine National Park","124.00783000","-5.72029400","Marine National Park","SK. Menhut Nomor 7661/Kpts-II/2002; Tgl 19-8-2002","National","Marine","Designated","2002-08-19",1390000.00,0.00,"Unknown","II","UNESCO-MAB Biosphere Reserve (2012)","Southeast Sulawesi","Yes","Unknown",0.00,"Unknown","Unknown","CTI","","Yes","Category 4","False","","","True"
"Indonesia","1004500","Bunaken Marine National Park","124.75421800","1.64338200","Marine National Park","SK. Menhut Nomor 730/Kpts-II/1991; Tgl 15-10-1991","National","Marine","Designated","1991-10-15",89065.00,0.00,"Unknown","II","No","North Sulawesi","Unknown","Unknown",0.00,"Unknown","Unknown","CTI","","Yes","Category 1","False","","","True"
"Indonesia","1004400","Kepulauan Togean Marine National Park","121.93924650","-0.36470265","Marine National Park","KEP MENHUT NOMOR 418/MENHUT-II/2004","National","Marine-Terrestrial","Designated","2004-01-12",362605.00,0.00,"Yes","Unknown","No","Sulawesi Tengah","Yes","Part",0.00,"Unknown","Unrated","MoEF","","Yes","Category 2","False","IDNMPA","","True"
"Indonesia","1004300","Riung Nature Reserve","120.97699400","-8.38500800","Nature Reserve","Menteri Kehutanan No. 589/Kpts-II/1996; Tgl. 16-9-1996","Local","Marine","Designated","1996-09-16",2000.00,0.00,"Unknown","Ib","No","East Nusa Tenggara","Unknown","Unknown",0.00,"Unknown","Unknown","MMAF & MoF","","Yes","Category 2","False","","","True"
"Indonesia","1004200","Pulau Rambut dan Perairan Marine Wildlife Reserve","106.69261500","-5.97405500","Marine Wildlife Reserve","Menteri Hutbun No. 275/Kpts-II/1999 Tgl. 7-5-1999","National","Marine","Designated","1999-05-07",90.00,0.00,"Unknown","IV","Ramsar Site  (1999)","DKL Jakarta","Unknown","Unknown",0.00,"Unknown","Unknown","MMAF & MoF","","Yes","Category 1","False","","","True"
"Indonesia","1004100","Pulau Semama Marine Wildlife Reserve","118.30083900","2.18621000","Marine Wildlife Reserve","Menteri Pertanian No. 604/Kpts/Um/8/82; Tgl. 19-08-1982","National","Marine","Designated","1982-08-19",220.00,0.00,"Unknown","IV","No","East Kalimantan","Unknown","Unknown",0.00,"Unknown","Unknown","MMAF & MoF","","Yes","Category 1","False","","","True"
"Indonesia","1004000","Pulau Sabuda dan Pulau Tataruga Marine Wildlife Reserve","131.61103800","-2.63126600","Marine Wildlife Reserve","Menteri Kehutanan No. 82/Kpts-II/1993,Tgl. 16-02-1993","National","Marine","Designated","1993-02-16",5000.00,0.00,"Unknown","IV","No","West Papua","Unknown","Unknown",0.00,"Unknown","Unknown","MMAF & MoF","","Yes","Category 2","False","","","True"
"Indonesia","1003900","Taman Wisata Alam Pulau Sangiang","105.85040880","-5.95705002","National Marine Protected Area","KEP MENHUT NOMOR 698/KPTS-II/91","National","Marine","Designated","1991-01-12",720.00,720.00,"Yes","Unknown","No","Banten","Yes","Part",,"EVIKA","Unrated","MMAF & MoF","","Yes","Category 2","False","","","True"
"Indonesia","1003800","Pulau Samama Sangalaki Marine Nature Recreational Park","118.33722600","2.14893600","Marine Nature Recreational Park","Menteri Pertanian No.604/Kpts/Um/8/1982; Tgl 19-08-1982","National","Marine","Designated","1982-08-19",280.00,0.00,"Unknown","V","No","East Kalimantan","Unknown","Unknown",0.00,"Unknown","Unknown","MMAF & MoF","","Yes","Category 2","False","","","True"
"Indonesia","1003700","Pulau Marsegu Marine Nature Recreational Park","128.06748200","-3.02881900","Marine Nature Recreational Park","Menteri Hutbun No. 114/Kpts-II/1999; Tgl. 5-03-1999","National","Marine","Designated","1999-03-05",11000.00,0.00,"Unknown","V","No","Maluku","Unknown","Unknown",0.00,"Unknown","Unknown","MMAF & MoF","","Yes","Category 2","False","","","True"
"Indonesia","1003600","Kepulauan Banyak Marine Nature Recreational Park","97.29742800","2.11457600","Marine Nature Recreational Park","Menteri Kehutanan No. 596/Kpts-II/1996; Tgl 16-9-1996","National","Marine","Designated","1996-09-16",227500.00,0.00,"Unknown","V","No","Nanggroe Aceh Darussalam","No","Unknown",0.00,"Unknown","Unknown","MMAF & MoF","","Yes","Category 2","False","","","True"
"Indonesia","1003400","Karimun Jawa Marine National Park","110.30852820","-5.79709952","National Marine Protected Area","KEP MENHUT NOMOR 74/KPTS-II/2001","National","Marine-Terrestrial","Designated","2001-01-12",110117.30,0.00,"Yes","Unknown","No","Jawa Tengah","Yes","Part",,"Unknown","Unrated","MoEF","","Yes","Category 2","False","IDNMPA","","True"
"Indonesia","1003300","Pulau Pieh Marine Tourism Park","100.10562900","-0.93206600","Marine Nature Recreational Park","KEPMENKP No. KEP.70/MEN/2009","National","Marine","Designated","2009-09-03",39900.00,0.00,"Yes","V","No","West Sumatra","Yes","Unknown",0.00,"EKKP3K","Strengthened","MMAF & MoF","","Yes","Category 2","True","idnmpa","","True"
"Indonesia","1003200","Kota Batam District Marine Conservation Area","104.19444700","0.50284900","District Marine Conservation Area","SK Walikota Batam No. Kpts 14/HK/VI/2007; Tgl 4 Juni 2007","Provincial","Marine","Designated","2007-06-04",66867.00,0.00,"Drafted","VI","No","Riau","Yes","Unknown",0.00,"EKKP3K","Established","MMAF & MoF","","Yes","Category 2","False","idnmpa","","True"
"Indonesia","1003100","Biak Numfor Marine Conservation Area","136.30318700","-1.17823200","Province Marine Conservation Area","Regency Decree Number 231 Tahun 2015 date 30 October 2015","Provincial","Marine","Designated","2009-04-17",46983.62,0.00,"Yes","VI","No","Papua","","Unknown",0.00,"EKKP3K","Established","MMAF & MoF","","Yes","Category 2","False","idnmpa","","True"
"Indonesia","1003000","Bintan Marine Conservation Area","107.16666800","0.87618200","Province Marine Conservation Area","Regent Decree of Bintan No. 261/VIII/2007 date 23 Agustus 2007","Local","Marine","Designated","2007-08-23",472905.00,0.00,"Yes","VI","No","Riau","Yes","Unknown",0.00,"EKKP3K","Strengthened","MMAF & MoF","","Yes","Category 1","False","idnmpa","","True"
"Indonesia","1002900","Pangandaran Marine Conservation Area","108.54783100","-7.70037300","Province Marine Conservation Area","Regent Decree No 15 Tahun 2008","Provincial","Marine","Designated","2008-01-01",29823.99,0.00,"Drafted","VI","No","West Java","Unknown","Unknown",0.00,"EKKP3K","Established","MMAF & MoF","","Yes","Category 1","False","idnmpa","","True"
"Indonesia","1002800","Kawasan Konservasi Kaur","103.30559930","-4.77803223","Province Marine Protected Area","PERDA PROVINSI BENGKULU NOMOR 5 TAHUN 2019","Provincial","Marine","Proposed","2019-01-12",29839.81,29839.81,"No","Unknown","No","Bengkulu","No","",,"","Established","MMAF & MoF","","Yes","Category 1","False","idnmpa","","True"
"Indonesia","1002700","North Nias Marine Conservation Area","97.23399400","1.43091300","Province Marine Conservation Area","Ministerial Decree No. 54/KEPMEN-KP/2017","Provincial","Marine","Designated","2007-01-01",29230.80,0.00,"Yes","VI","No","North Sumatra","Yes","Unknown",0.00,"EKKP3K","Strengthened","MMAF & MoF","","Yes","Category 2","False","idnmpa","","True"
"Indonesia","1002600","Simeulue District Marine Conservation Area","96.28124600","2.63859700","Province Marine Conservation Area","Governor Decree of Aceh Number 523/1297/2018 date 26 November 2018","Provincial","Marine","Designated","2018-11-26",69053.78,0.00,"Drafted","VI","No","Nanggroe Aceh Darussalam","Unknown","Unknown",0.00,"Unknown","Unknown","MMAF & MoF","","Yes","Category 1","False","idnmpa","","True"
"Indonesia","1002500","Tapanuli Tengah Marine Conservation Area","98.63030700","1.62852300","Province Marine Conservation Area","Governor Decree of North Sumatera No 188.44/629/KPTS/2017 date 21 November 2017","Provincial","Marine","Designated","2017-11-21",81243.00,0.00,"Drafted","VI","No","North Sumatra","Unknown","Unknown",0.00,"EKKP3K","Unknown","MMAF & MoF","","Yes","Category 1","False","idnmpa","","True"
"Indonesia","1002400","Jorongmaligi Marine Conservation Area","99.44877000","0.09502300","Province Marine Conservation Area","Governor Decree of West Sumatera 523-6-150-2017 date 7 February 2017","Provincial","Marine","Designated","2017-02-07",6795.80,0.00,"Drafted","VI","No","West Sumatra","Unknown","Unknown",0.00,"EKKP3K","Established","MMAF & MoF","","Yes","Category 1","False","idnmpa","","True"
"Indonesia","1002300","Mentawai Marine Conservation Area","99.28430600","-1.92459100","Province Marine Conservation Area","Ministerial Decree No. 22/KEPMEN-KP/2018","Provincial","Marine","Designated","2012-04-27",129566.00,0.00,"Yes","VI","UNESCO-MAB Biosphere Reserve (1981)","West Sumatra","Yes","Unknown",0.00,"EKKP3K","Strengthened","MMAF & MoF","","Yes","Category 2","False","idnmpa","","True"
"Indonesia","1002200","Natuna Marine Conservation Area","108.03392000","3.54811000","Province Marine Conservation Area"," Regent Decree No 378 tahun 2008 and No 304 Tahun 2011","Provincial","Marine","Designated","2007-09-05",152223.97,0.00,"Drafted","VI","No","Riau","Unknown","Unknown",0.00,"EKKP3K","Established","MMAF & MoF","","Yes","Category 1","False","idnmpa","","True"
"Indonesia","1002100","Pariaman Marine Conservation Area","100.07536000","-0.60345900","Province Marine Conservation Area","Governor Decree of West Sumatera 523-6-150-2017 date 7 February 2017","Provincial","Marine","Designated","2017-02-07",11525.89,0.00,"Yes","VI","No","West Sumatra","Yes","Unknown",0.00,"EKKP3K","Strengthened","MMAF & MoF","","Yes","Category 2","False","idnmpa","","True"
"Indonesia","1002000","Pesisir Selatan Marine Conservation Area","100.53648500","-1.55398700","Province Marine Conservation Area","Governor Decree of West Sumatera 523-6-150-2017 date 7 February 2017","Provincial","Marine","Designated","2003-05-19",733.00,0.00,"Unknown","V","No","West Sumatra","Unknown","Unknown",0.00,"EKKP3K","Established","MMAF & MoF","","Yes","Category 1","False","idnmpa","","True"
"Indonesia","1001900","Pangumbahan, Kec Ciracap, kab Sukabumi District Marine Conservation Area","106.36430500","-7.35136200","Province Marine Conservation Area","Keputusan Menteri Kelautan dan Perikanan Nomor 5/KEPMEN-KP/2016","Provincial","Marine","Designated","2016-02-06",2706.09,0.00,"Yes","VI","No","West Java","Yes","Part",0.00,"E-KKP3K","Strengthened","MMAF & MoF","","Yes","Category 3","False","idnmpa","","True"
"Indonesia","1001800","Gili Banta Marine Conservation Area","119.29903000","-8.43041400","Province Marine Conservation Area","Governor Decree of NTB Number 523 - 640 Tahun 2018 date 3 August 2018","Provincial","Marine","Designated","2018-08-03",40500.00,0.00,"Yes","VI","No","West Nusa Tenggara","Yes","Unknown",0.00,"EKKP3K","Strengthened","MMAF & MoF","","Yes","Category 2","False","idnmpa","","True"
"Indonesia","1001700","Bengkayang (P. Randayan) Marine Conservation Area","108.75124900","0.76215300","Province Marine Conservation Area","Governor Decree West Kalimantan Nomor 193/DKP/2017 date 21 February 2017","Provincial","Marine","Designated","2017-02-21",149079.00,0.00,"Unknown","VI","No","West Kalimantan","Unknown","Unknown",0.00,"EKKP3K","Established","MMAF & MoF","","Yes","Category 1","False","idnmpa","","True"
"Indonesia","1001600","Pulau Biawak Marine Conservation Area","108.44938700","-5.94416600","Province Marine Conservation Area","No.556/Kep.528 Diskanla /2004; Tgl.7-4-2004","Local","Marine","Designated","2004-09-16",720.00,0.00,"Unknown","V","No","West Java","Unknown","Unknown",0.00,"EKKP3K","Established","MMAF & MoF","","Yes","Category 1","False","idnmpa","","True"
"Indonesia","1001500","Kab Lampung Barat District Marine Conservation Area","104.14976100","-5.49353500","District Marine Conservation Area","SK Bupati B/206/KPTS/II.12/2012","Local","Marine","Designated","2007-12-27",15459.68,0.00,"Unknown","VI","No","Lampung","Unknown","Unknown",0.00,"Unknown","Unknown","MMAF & MoF","","Yes","Category 1","False","idnmpa","","True"
"Indonesia","1001400","Selat Tiworo Marine Conservation Area","122.34471100","-4.65155800","Province Marine Conservation Area","No.157 Tahun 2004 Tgl.3-5-2004","Local","Marine","Designated","2004-05-03",27936.00,0.00,"Yes","VI","No","Southeast Sulawesi","Yes","Unknown",0.00,"Unknown","Unknown","MMAF & MoF","","Yes","Category 2","False","idnmpa","","True"
"Indonesia","1001300","Serdang Bedagai Marine Conservation Area","99.49764100","3.77555700","Province Marine Conservation Area","Governor Decree North Sumatera NO 188.44/629/KPTS/2017 tanggal 21 November 2017","Provincial","Marine","Designated","2004-04-08",1240.35,0.00,"Unknown","VI","No","North Sumatra","Unknown","Unknown",0.00,"Unknown","Unknown","MMAF & MoF","","Yes","Category 1","False","idnmpa","","True"
"Indonesia","1001200","Derawan Marine Conservation Area","118.43768300","1.89430700","Province Marine Conservation Area","Ministerial Decree No. 87/KEPMEN-KP/2016","Local","Marine","Designated","2004-03-25",285584.95,0.00,"Unknown","VI","No","East Kalimantan","Unknown","Unknown",0.00,"Unknown","Unknown","MMAF & MoF","","Yes","Category 2","False","idnmpa","","True"
"Indonesia","1001100","Olele Beach Marine Conservation Area","123.15164500","0.40819000","Province Marine Conservation Area","Governor Decree of Gorontalo Number 141/24/IV/2019","Provincial","Marine","Designated","2006-11-06",490.49,0.00,"Unknown","VI","No","Gorontalo","Unknown","Unknown",0.00,"Unknown","Unknown","MMAF & MoF","","Yes","Category 1","False","idnmpa","","True"
"Indonesia","1001000","SAP Waigeo Sebelah Barat","130.04375100","0.19498600","Marine Wildlife Reserve","Kep MenKP Nomor 65/Men/2009  date 3 September 2009","National","Marine","Designated","2009-09-03",271630.00,0.00,"Yes","IV","No","West Papua","Yes","Unknown",0.00,"Unknown","Unknown","MMAF & MoF","","Yes","Category 2","False","idnmpa","","True"
"Indonesia","1000900","Kaimana Marine Conservation Area","133.85375700","-3.75431300","Province Marine Conservation Area","Ministerial Decree No. 25/KEPMEN-KP/2019","Provincial","Marine","Designated","2019-01-01",499804.13,0.00,"Yes","VI","No","West Papua","Yes","Unknown",0.00,"EKKP3K","Strengthened","MMAF & MoF","","Yes","Category 2","False","idnmpa","","True"
"Indonesia","1000800","Gili Balu MPA","116.96348200","-8.42685400","Province Marine Conservation Area","Governor Decree NTB Nomor 523 - 640 Tahun 2018 fate 3 August 2018","Provincial","Marine","Designated","2018-08-03",6005.20,0.00,"Yes","Ia","No","West Nusa Tenggara","Yes","Unknown",0.00,"EKKP3K","Strengthened","MMAF & MoF","","Yes","Category 2","False","idnmpa","","True"
"Indonesia","1000700","Pulau Pombo Marine Nature Recreational Park","128.59614500","-3.65693000","Marine Nature Recreational Park","Menteri Kehutanan No. 392/Kpts-VI/1996; Tgl 30-07-1996","National","Marine","Designated","1996-07-30",998.00,0.00,"Unknown","V","No","Maluku","Unknown","Unknown",0.00,"Unknown","Unknown","WDPA","","Yes","Category 1","False","","","True"
"Indonesia","1000600","Pulau Kasa Marine Nature Recreational Park","128.13196000","-3.30852600","Marine Nature Recreational Park","Menteri Pertanian No. 653/Kpts/Um/10/1978; Tgl. 25-10-1978","National","Marine","Designated","1978-10-25",1100.00,0.00,"Unknown","V","No","Maluku","Unknown","Unknown",0.00,"Unknown","Unknown","WDPA","","Yes","Category 1","False","","","True"
"Indonesia","1000500","Pulau Pasi Gusung Selayar","120.38682000","-6.21033000","Province Marine Conservation Area","Governor Decree of South Sulawesi Number 3173/XII/2018 date 12 Desember 2018","Provincial","Marine","Designated","2018-12-12",5018.00,5018.00,"Yes","VI","No","South Sulawesi","Yes","Unknown",0.00,"EKKP3K","Unknown","MMAF & MoF","Two different areas, with x,y coordinates: 120.38682, -6.21033 (Pulau Selayar);  120.775002,-6.841666 (Pulau Kayu Adi)","Yes","Category 2","False","","","True"
"Indonesia","1000400","Sorong Selatan MPA","132.48436100","-0.32970800","Province Marine Conservation Area","Governor Decree of West Papua No 523/25/1/2019 date 25 Januari 2019","Local","Marine","Designated","2019-01-25",338323.00,0.00,"Unknown","Unknown","No","West Papua","Unknown","Unknown",0.00,"Unknown","Unknown","MMAF (2010)","Boundaries digitized following point coordinates in the book '42 Indonesian Marine Protected Areas', MMAF (2010)","Yes","Category 1","False","idnmpa","","True"
"Indonesia","1000300","Batang Gasan","99.97475000","-0.45647000","Province Marine Conservation Area ","SK Bupati Padang Pariaman No. 02 Kep/BPP-2010 alteration Gubernor Decree of West Sumatera Number 523-6-150-2017 tanggal 7 Februari 2017","Local","Marine","Designated","2010-02-01",684.00,0.00,"Drafted","Unknown","No","West Sumatra","Unknown","Unknown",0.00,"Unknown","Unknown","MMAF (2010)","Boundaries digitized following point coordinates in the book '42 Indonesian Marine Protected Areas', MMAF (2010)","Yes","Category 1","False","idnmpa","","True"
"Indonesia","1000200","Nias Selatan","98.21916700","-0.08093200","District Marine Conservation Area","Governor Decree of North Sumatera Number 188.44/629/KPTS/2017 dates 21 November 2017","Local","Marine","Designated","2009-12-05",56000.00,56000.00,"Unknown","VI","No","North Sumatra","Unknown","Unknown",0.00,"Unknown","Unknown","MMAF (2010)","Boundaries digitized following point coordinates in the book '42 Indonesian Marine Protected Areas', MMAF (2010)","Yes","Category 1","False","idnmpa","","True"
"Indonesia","1000100","Raja Ampat (Southeast Misool, Teluk Mayalibit, Selat Dampier, Ayau-Asia Island) District Marine Conservation Area","130.55215000","-2.06060300","District Marine Conservation Area","KEPMENKP NOMOR 13 TAHUN 2021","Local","Marine","Designated","2021-12-01",1348459.47,0.00,"Yes","Unknown","No","West Papua","Yes","Part",27378.16,"EVIKA","Institutionalized","MMAF","propose for category 3  4 ","Yes","Category 2","False","idnmpa","2024-10-10","True"
